{
  "sourceName": "RentalDash Canada Catalog",
  "sourceUrl": "/data/canada-rental-catalog.json",
  "listings": [
    {
      "externalId": "rd-can-toronto-001",
      "title": "Downtown Toronto One Bedroom",
      "price": 2425,
      "bedrooms": 1,
      "bathrooms": 1,
      "propertyType": "Apartment",
      "address": "Downtown Toronto, ON",
      "lat": 43.6532,
      "lng": -79.3832,
      "amenities": ["Laundry", "Transit", "Bike storage"],
      "availability": "2026-08-01",
      "url": "https://example.com/canada-rentals/toronto-001"
    },
    {
      "externalId": "rd-can-scarborough-001",
      "title": "Scarborough Two Bedroom Near Transit",
      "price": 2250,
      "bedrooms": 2,
      "bathrooms": 1,
      "propertyType": "Apartment",
      "address": "Scarborough, ON",
      "lat": 43.7764,
      "lng": -79.2318,
      "amenities": ["Parking", "Transit", "Balcony"],
      "availability": "2026-08-15",
      "url": "https://example.com/canada-rentals/scarborough-001"
    },
    {
      "externalId": "rd-can-mississauga-001",
      "title": "Mississauga Condo With Parking",
      "price": 2350,
      "bedrooms": 1,
      "bathrooms": 1,
      "propertyType": "Condo",
      "address": "Mississauga, ON",
      "lat": 43.589,
      "lng": -79.6441,
      "amenities": ["Parking", "Gym", "Dishwasher"],
      "availability": "2026-09-01",
      "url": "https://example.com/canada-rentals/mississauga-001"
    },
    {
      "externalId": "rd-can-ottawa-001",
      "title": "Centretown Ottawa Apartment",
      "price": 1875,
      "bedrooms": 1,
      "bathrooms": 1,
      "propertyType": "Apartment",
      "address": "Centretown, Ottawa, ON",
      "lat": 45.4215,
      "lng": -75.6972,
      "amenities": ["Laundry", "Transit", "Storage"],
      "availability": "2026-08-01",
      "url": "https://example.com/canada-rentals/ottawa-001"
    },
    {
      "externalId": "rd-can-montreal-001",
      "title": "Plateau Montreal Walk-Up",
      "price": 1725,
      "bedrooms": 2,
      "bathrooms": 1,
      "propertyType": "Apartment",
      "address": "Le Plateau-Mont-Royal, Montreal, QC",
      "lat": 45.5215,
      "lng": -73.5878,
      "amenities": ["Pet friendly", "Balcony", "Transit"],
      "availability": "2026-07-15",
      "url": "https://example.com/canada-rentals/montreal-001"
    },
    {
      "externalId": "rd-can-quebec-001",
      "title": "Quebec City Studio Near Old Port",
      "price": 1325,
      "bedrooms": 0,
      "bathrooms": 1,
      "propertyType": "Studio",
      "address": "Quebec City, QC",
      "lat": 46.8139,
      "lng": -71.208,
      "amenities": ["Laundry", "Transit", "Utilities included"],
      "availability": "2026-08-01",
      "url": "https://example.com/canada-rentals/quebec-001"
    },
    {
      "externalId": "rd-can-vancouver-001",
      "title": "Mount Pleasant Vancouver Suite",
      "price": 2650,
      "bedrooms": 1,
      "bathrooms": 1,
      "propertyType": "Suite",
      "address": "Mount Pleasant, Vancouver, BC",
      "lat": 49.262,
      "lng": -123.1009,
      "amenities": ["In-suite laundry", "Storage", "Transit"],
      "availability": "2026-08-15",
      "url": "https://example.com/canada-rentals/vancouver-001"
    },
    {
      "externalId": "rd-can-burnaby-001",
      "title": "Burnaby High-Rise One Bedroom",
      "price": 2475,
      "bedrooms": 1,
      "bathrooms": 1,
      "propertyType": "Apartment",
      "address": "Metrotown, Burnaby, BC",
      "lat": 49.2276,
      "lng": -123.0076,
      "amenities": ["Gym", "Transit", "Parking"],
      "availability": "2026-09-01",
      "url": "https://example.com/canada-rentals/burnaby-001"
    },
    {
      "externalId": "rd-can-victoria-001",
      "title": "Victoria James Bay Studio",
      "price": 1675,
      "bedrooms": 0,
      "bathrooms": 1,
      "propertyType": "Studio",
      "address": "James Bay, Victoria, BC",
      "lat": 48.4199,
      "lng": -123.3702,
      "amenities": ["Bike storage", "Laundry", "Waterfront"],
      "availability": "2026-08-01",
      "url": "https://example.com/canada-rentals/victoria-001"
    },
    {
      "externalId": "rd-can-calgary-001",
      "title": "Calgary Beltline One Bedroom",
      "price": 1695,
      "bedrooms": 1,
      "bathrooms": 1,
      "propertyType": "Apartment",
      "address": "Beltline, Calgary, AB",
      "lat": 51.0418,
      "lng": -114.0754,
      "amenities": ["Parking", "Gym", "Balcony"],
      "availability": "2026-08-01",
      "url": "https://example.com/canada-rentals/calgary-001"
    },
    {
      "externalId": "rd-can-edmonton-001",
      "title": "Edmonton Oliver Two Bedroom",
      "price": 1825,
      "bedrooms": 2,
      "bathrooms": 1,
      "propertyType": "Apartment",
      "address": "Oliver, Edmonton, AB",
      "lat": 53.5412,
      "lng": -113.5168,
      "amenities": ["Parking", "Laundry", "River valley"],
      "availability": "2026-08-15",
      "url": "https://example.com/canada-rentals/edmonton-001"
    },
    {
      "externalId": "rd-can-saskatoon-001",
      "title": "Saskatoon Nutana Apartment",
      "price": 1425,
      "bedrooms": 1,
      "bathrooms": 1,
      "propertyType": "Apartment",
      "address": "Nutana, Saskatoon, SK",
      "lat": 52.117,
      "lng": -106.6509,
      "amenities": ["Parking", "Laundry", "Balcony"],
      "availability": "2026-09-01",
      "url": "https://example.com/canada-rentals/saskatoon-001"
    },
    {
      "externalId": "rd-can-regina-001",
      "title": "Regina Cathedral One Bedroom",
      "price": 1295,
      "bedrooms": 1,
      "bathrooms": 1,
      "propertyType": "Apartment",
      "address": "Cathedral, Regina, SK",
      "lat": 50.4452,
      "lng": -104.6189,
      "amenities": ["Parking", "Storage", "Laundry"],
      "availability": "2026-08-01",
      "url": "https://example.com/canada-rentals/regina-001"
    },
    {
      "externalId": "rd-can-winnipeg-001",
      "title": "Winnipeg Osborne Village Rental",
      "price": 1375,
      "bedrooms": 1,
      "bathrooms": 1,
      "propertyType": "Apartment",
      "address": "Osborne Village, Winnipeg, MB",
      "lat": 49.8796,
      "lng": -97.1468,
      "amenities": ["Transit", "Laundry", "Pet friendly"],
      "availability": "2026-08-15",
      "url": "https://example.com/canada-rentals/winnipeg-001"
    },
    {
      "externalId": "rd-can-halifax-001",
      "title": "Halifax North End Flat",
      "price": 1895,
      "bedrooms": 2,
      "bathrooms": 1,
      "propertyType": "Flat",
      "address": "North End, Halifax, NS",
      "lat": 44.6652,
      "lng": -63.5977,
      "amenities": ["Laundry", "Transit", "Storage"],
      "availability": "2026-09-01",
      "url": "https://example.com/canada-rentals/halifax-001"
    },
    {
      "externalId": "rd-can-moncton-001",
      "title": "Moncton Downtown Two Bedroom",
      "price": 1495,
      "bedrooms": 2,
      "bathrooms": 1,
      "propertyType": "Apartment",
      "address": "Downtown Moncton, NB",
      "lat": 46.0878,
      "lng": -64.7782,
      "amenities": ["Parking", "Laundry", "Dishwasher"],
      "availability": "2026-08-01",
      "url": "https://example.com/canada-rentals/moncton-001"
    },
    {
      "externalId": "rd-can-charlottetown-001",
      "title": "Charlottetown Central Apartment",
      "price": 1525,
      "bedrooms": 1,
      "bathrooms": 1,
      "propertyType": "Apartment",
      "address": "Charlottetown, PE",
      "lat": 46.2382,
      "lng": -63.1311,
      "amenities": ["Laundry", "Parking", "Transit"],
      "availability": "2026-08-15",
      "url": "https://example.com/canada-rentals/charlottetown-001"
    },
    {
      "externalId": "rd-can-stjohns-001",
      "title": "St. John's Downtown Rental",
      "price": 1450,
      "bedrooms": 2,
      "bathrooms": 1,
      "propertyType": "Apartment",
      "address": "Downtown St. John's, NL",
      "lat": 47.5615,
      "lng": -52.7126,
      "amenities": ["Laundry", "Storage", "Harbour access"],
      "availability": "2026-09-01",
      "url": "https://example.com/canada-rentals/stjohns-001"
    },
    {
      "externalId": "rd-can-whitehorse-001",
      "title": "Whitehorse Riverdale Suite",
      "price": 1825,
      "bedrooms": 1,
      "bathrooms": 1,
      "propertyType": "Suite",
      "address": "Riverdale, Whitehorse, YT",
      "lat": 60.7212,
      "lng": -135.0568,
      "amenities": ["Parking", "Storage", "Laundry"],
      "availability": "2026-08-01",
      "url": "https://example.com/canada-rentals/whitehorse-001"
    },
    {
      "externalId": "rd-can-yellowknife-001",
      "title": "Yellowknife Downtown Apartment",
      "price": 2050,
      "bedrooms": 1,
      "bathrooms": 1,
      "propertyType": "Apartment",
      "address": "Downtown Yellowknife, NT",
      "lat": 62.454,
      "lng": -114.3718,
      "amenities": ["Parking", "Laundry", "Storage"],
      "availability": "2026-08-15",
      "url": "https://example.com/canada-rentals/yellowknife-001"
    },
    {
      "externalId": "rd-can-iqaluit-001",
      "title": "Iqaluit Central Rental",
      "price": 2600,
      "bedrooms": 2,
      "bathrooms": 1,
      "propertyType": "Apartment",
      "address": "Iqaluit, NU",
      "lat": 63.7467,
      "lng": -68.517,
      "amenities": ["Laundry", "Storage", "Utilities included"],
      "availability": "2026-09-01",
      "url": "https://example.com/canada-rentals/iqaluit-001"
    }
  ]
}
